City,Cloudiness,Country,Date,Humidity,Lat,Lng,Max Temp,Wind Speed
Hobart,100,AU,1569513989,71,-42.88,147.33,53.01,10.29
Hay River,75,CA,1569513990,66,60.82,-115.79,32.0,11.21
Rikitea,41,PF,1569513992,73,-23.12,-134.97,71.23,10.18
Carutapera,86,BR,1569513993,64,-1.2,-46.02,85.99,9.04
Soyo,40,AO,1569513994,78,-6.13,12.37,80.6,10.29
Ushuaia,75,AR,1569513995,92,-54.81,-68.31,50.0,13.87
Bandarbeyla,86,SO,1569513997,65,9.49,50.81,81.13,21.94
Newport,20,GB,1569513729,67,51.59,-3.0,64.99,18.34
Asosa,41,ET,1569513999,93,10.07,34.53,70.69,3.58
Busselton,0,AU,1569514000,55,-33.64,115.35,57.0,14.65
Butaritari,49,KI,1569514001,68,3.07,172.79,84.73,11.88
Port Elizabeth,75,US,1569514002,69,39.31,-74.98,82.99,16.11
Yangambi,79,CD,1569514004,67,0.77,24.47,81.13,4.97
Bredasdorp,0,ZA,1569514005,18,-34.53,20.04,82.4,5.82
Mataura,74,NZ,1569514006,88,-46.19,168.86,46.0,13.0
Salalah,40,OM,1569514007,78,17.01,54.1,82.4,5.82
New Norfolk,100,AU,1569514009,71,-42.78,147.06,53.01,10.29
Thinadhoo,100,MV,1569514010,78,0.53,72.93,83.65,21.59
Mitsamiouli,20,KM,1569514011,74,-11.38,43.28,78.8,27.51
Punta Arenas,75,CL,1569514012,62,-53.16,-70.91,50.0,23.04
Tasiilaq,75,GL,1569514013,52,65.61,-37.64,46.4,13.87
Port-Cartier,90,CA,1569514015,100,50.03,-66.88,46.99,9.17
Biscarrosse,75,FR,1569514016,64,44.41,-1.18,71.6,8.05
Avarua,63,CK,1569514017,94,-21.21,-159.78,69.8,1.12
Berlevag,75,NO,1569514018,87,70.86,29.09,44.6,4.7
Angoche,0,MZ,1569514020,63,-16.23,39.91,73.03,13.0
East London,0,ZA,1569514021,60,-33.02,27.91,69.8,14.99
Carnarvon,0,ZA,1569514022,8,-30.97,22.13,76.45,8.5
Lasa,20,CY,1569514024,74,34.92,32.53,78.8,10.29
Kapaa,75,US,1569514025,94,22.08,-159.32,77.0,5.82
Pechenga,99,RU,1569514027,90,58.89,41.46,38.83,4.74
Jieshi,0,CN,1569514028,70,22.82,115.83,81.0,1.57
Tual,39,ID,1569514029,86,-5.67,132.75,78.61,17.05
Arraial do Cabo,90,BR,1569513928,94,-22.97,-42.02,69.8,13.87
Port Alfred,0,ZA,1569513747,79,-33.59,26.89,64.0,1.01
Abu Samrah,0,SY,1569514034,34,35.3,37.18,83.65,14.76
Burnie,77,AU,1569514035,97,-41.05,145.91,43.51,1.14
Beloha,98,MG,1569514036,75,-25.17,45.06,66.91,18.81
Narsaq,20,GL,1569514037,40,60.91,-46.05,50.0,3.36
Ballina,40,IE,1569514039,93,54.11,-9.15,57.2,11.41
Maniitsoq,26,GL,1569514040,55,65.42,-52.9,44.41,3.8
Singapore,75,MY,1569513892,78,1.29,103.85,84.2,3.36
Albany,75,US,1569514042,63,42.65,-73.75,73.99,14.99
Mahajanga,20,MG,1569514043,74,-15.72,46.32,80.6,9.17
Plaridel,0,PH,1569514045,81,13.96,122.02,82.03,11.23
Bethel,90,US,1569514046,93,60.79,-161.76,39.2,8.05
Airai,0,TL,1569514047,87,-8.93,125.41,69.07,4.83
Asuncion,0,PY,1569514048,23,-25.3,-57.63,86.0,4.7
Hithadhoo,100,MV,1569514050,76,-0.6,73.08,83.83,18.52
Saint George,20,GR,1569514052,57,39.45,22.34,87.8,8.05
Alexandria,100,RO,1569513602,58,43.97,25.33,72.0,6.4
Kodiak,1,US,1569514054,55,39.95,-94.76,70.0,11.41
Havre-Saint-Pierre,90,CA,1569514056,93,50.23,-63.6,46.4,6.93
Lagos,40,NG,1569513858,66,6.46,3.39,87.8,12.75
Pokhara,100,NP,1569514058,93,28.21,83.99,53.23,1.32
Kuytun,100,RU,1569514059,87,54.34,101.51,46.21,10.6
Macherla,98,IN,1569514060,89,16.48,79.44,76.45,7.85
Cape Town,0,ZA,1569514037,24,-33.93,18.42,88.0,11.41
Atuona,94,PF,1569514063,77,-9.8,-139.03,78.97,16.26
Huarmey,100,PE,1569514064,94,-10.07,-78.15,60.79,9.64
Ribeira Grande,75,PT,1569514065,88,38.52,-28.7,75.2,9.17
Nikolskoye,40,RU,1569514066,71,59.7,30.79,50.0,8.95
Aguadas,75,CO,1569514068,87,5.61,-75.46,68.0,5.82
Puerto Ayora,75,EC,1569514069,73,-0.74,-90.35,73.4,10.29
Jamestown,100,AU,1569514070,28,-33.21,138.6,55.93,7.83
Saskylakh,99,RU,1569514071,86,71.97,114.09,30.91,7.05
Yellowknife,20,CA,1569514072,71,62.45,-114.38,32.0,5.82
Celestun,100,MX,1569514074,82,20.87,-90.4,80.59,7.63
Qaanaaq,100,GL,1569514075,89,77.48,-69.36,27.67,16.35
Pevek,0,RU,1569514076,66,69.7,170.27,32.71,4.12
Castro,0,CL,1569514077,59,-42.48,-73.76,60.8,8.05
Tutoia,20,BR,1569514079,52,-2.76,-42.27,89.6,16.11
Kutum,100,SD,1569514080,17,14.2,24.66,91.21,14.32
Souillac,90,FR,1569514081,72,45.6,-0.6,73.0,16.11
Dikson,100,RU,1569514082,93,73.51,80.55,35.59,5.75
Tuktoyaktuk,90,CA,1569514084,80,69.44,-133.03,33.8,19.46
Mount Isa,31,AU,1569514085,33,-20.73,139.49,73.4,9.17
Bennington,40,US,1569513824,56,42.88,-73.2,72.0,4.7
Bilibino,99,RU,1569514087,76,68.06,166.44,18.31,2.26
Bluff,0,AU,1569514089,90,-23.58,149.07,60.43,8.68
Grindavik,75,IS,1569514090,82,63.84,-22.43,62.6,5.82
Hilo,1,US,1569514091,69,19.71,-155.08,75.2,3.36
Sibu,75,MY,1569514092,94,2.29,111.83,77.0,1.74
West Wendover,1,US,1569514093,43,40.74,-114.07,55.4,3.49
Georgetown,40,GY,1569514095,70,6.8,-58.16,87.8,2.24
Ossora,100,RU,1569514096,90,59.24,163.07,40.99,5.26
Nizhniy Bestyakh,40,RU,1569514097,65,61.96,129.91,46.4,2.24
Codrington,90,AU,1569514099,87,-28.95,153.24,64.4,4.38
Chokurdakh,79,RU,1569514101,89,70.62,147.9,25.51,8.84
Palmer,0,AU,1569514102,44,-34.85,139.16,63.0,9.17
Komsomolskiy,100,RU,1569514104,92,67.55,63.78,32.71,4.14
Luderitz,91,NA,1569514106,49,-26.65,15.16,73.4,1.12
Meadow Lake,75,CA,1569514107,87,54.13,-108.44,42.8,4.7
Saint-Philippe,90,CA,1569514108,93,45.36,-73.48,61.0,12.75
Ahipara,33,NZ,1569514109,100,-35.17,173.16,48.99,23.22
Yulara,69,AU,1569514110,38,-25.24,130.99,60.8,2.98
Severo-Kurilsk,100,RU,1569514112,82,50.68,156.12,46.93,33.2
Quatre Cocos,75,MU,1569514113,94,-20.21,57.76,73.99,14.99
Nanortalik,0,GL,1569514116,70,60.14,-45.24,45.13,2.82
Kruisfontein,0,ZA,1569514118,28,-34.0,24.73,79.87,4.21
Aktau,0,KZ,1569514119,52,43.65,51.16,64.4,15.66
Honolulu,75,US,1569513955,100,21.3,-157.86,78.8,3.47
Ayan,84,IR,1569514121,28,38.23,44.7,59.71,6.08
Alta Floresta,0,BR,1569514122,66,-9.87,-56.08,84.2,8.05
Havoysund,75,NO,1569514123,100,71.0,24.66,46.4,21.92
Saint-Pierre,0,FR,1569514125,77,48.95,4.24,68.0,12.75
Pisco,90,PE,1569514126,30,-13.71,-76.2,71.6,6.93
Fortuna,1,US,1569514127,93,40.6,-124.16,57.99,5.82
Senneterre,75,CA,1569514129,87,48.39,-77.24,53.6,5.82
Ilulissat,20,GL,1569514131,38,69.22,-51.1,39.2,17.22
Strezhevoy,75,RU,1569514132,86,60.73,77.6,37.4,6.71
Muli,0,CN,1569514133,61,28.08,109.56,65.83,3.69
Mar del Plata,13,AR,1569514134,30,-46.43,-67.52,58.63,16.55
Tura,57,RU,1569514136,80,64.27,100.22,30.37,3.22
Mnogovershinnyy,0,RU,1569514137,73,53.94,139.92,36.85,6.02
Hualmay,100,PE,1569514139,93,-11.1,-77.61,60.79,9.35
Kibaya,75,RW,1569514140,56,-2.2,30.56,73.4,6.93
Yenagoa,100,NG,1569514142,81,4.92,6.26,81.67,8.48
Muros,40,ES,1569514143,77,42.77,-9.06,69.01,11.41
Umuarama,0,BR,1569514144,52,-23.76,-53.31,80.05,2.21
Pocatello,1,US,1569514145,40,42.87,-112.44,61.0,7.52
Mandalgovi,65,MN,1569514147,21,45.76,106.27,63.31,10.25
Lavrentiya,98,RU,1569514148,89,65.58,-170.99,29.29,3.47
Batsfjord,75,NO,1569514149,87,70.63,29.72,46.4,4.7
Husavik,27,CA,1569514150,70,50.56,-96.99,53.01,5.99
Cap Malheureux,75,MU,1569514152,94,-19.98,57.61,75.0,14.99
Khatanga,100,RU,1569514153,97,71.98,102.47,33.25,9.13
Clyde River,90,CA,1569514155,86,70.47,-68.59,39.2,4.7
Bonoua,40,CI,1569514156,78,5.27,-3.6,82.4,14.99
Coihaique,0,CL,1569514157,70,-45.58,-72.07,53.6,5.82
Bambous Virieux,75,MU,1569514159,94,-20.34,57.76,75.0,14.99
San Patricio,0,PY,1569514160,35,-26.98,-56.83,78.43,5.46
Deggendorf,100,DE,1569514161,83,48.83,12.96,64.0,7.9
Hofn,90,IS,1569514162,87,64.25,-15.21,53.6,8.05
Roebourne,0,AU,1569514164,60,-20.77,117.15,63.85,6.08
Pedernales,100,EC,1569514165,83,0.07,-80.05,73.57,12.37
Katsuura,75,JP,1569514166,78,33.93,134.5,77.0,5.82
Ponta do Sol,100,BR,1569514167,95,-20.63,-46.0,62.77,2.48
Bonham,75,US,1569514169,69,33.58,-96.18,86.0,5.82
Kilindoni,33,TZ,1569514171,76,-7.91,39.67,79.33,23.47
Leningradskiy,0,RU,1569514172,72,69.38,178.42,25.33,7.02
Bosaso,0,SO,1569514173,82,11.28,49.18,85.99,12.59
Cleburne,40,US,1569514175,58,32.35,-97.39,88.0,5.82
Kamina,71,CD,1569514176,21,-8.74,25.0,89.77,4.12
Ust-Nera,34,RU,1569514177,54,64.57,143.24,23.71,3.31
Provideniya,100,RU,1569514178,97,64.42,-173.23,33.61,9.86
Nome,40,US,1569514180,62,30.04,-94.42,86.0,4.18
Verkhnyaya Inta,100,RU,1569514181,98,65.99,60.32,34.69,6.62
Vaini,100,IN,1569514182,94,15.34,74.49,75.01,2.8
Dourbali,98,TD,1569514183,61,11.81,15.86,84.37,14.34
Mareeba,40,AU,1569514185,78,-16.99,145.42,71.6,8.05
Tiksi,100,RU,1569514187,98,71.64,128.87,35.05,2.93
Hami,0,CN,1569514188,16,42.84,93.51,74.11,5.06
Tautira,0,PF,1569514189,78,-17.73,-149.15,75.2,3.36
Tezu,0,IN,1569514191,83,27.93,96.16,70.33,3.98
Cidreira,11,BR,1569514192,71,-30.17,-50.22,69.25,10.29
Keokuk,1,US,1569514193,59,40.4,-91.39,70.0,1.86
Langenhagen,90,DE,1569514194,88,52.44,9.74,64.4,5.82
Boguchany,27,RU,1569514196,95,58.38,97.46,33.07,4.99
Mount Gambier,100,AU,1569514197,62,-37.83,140.78,53.6,12.75
Karabulak,68,KZ,1569514198,25,44.91,78.49,63.85,5.97
Vanimo,12,PG,1569514200,78,-2.67,141.3,82.93,8.68
Pareora,55,NZ,1569514202,95,-44.49,171.21,46.0,2.98
Kushima,28,JP,1569514203,88,31.5,131.29,73.0,5.99
Alice Springs,29,AU,1569514098,72,-23.7,133.88,62.6,10.29
Gamba,100,CN,1569514206,51,28.28,88.52,42.07,2.62
Awbari,6,LY,1569514207,10,26.59,12.77,100.57,9.91
Guane,0,CU,1569514208,72,22.2,-84.09,79.69,8.32
Rocha,0,UY,1569514209,53,-34.48,-54.34,68.53,12.06
Omboue,31,GA,1569514210,84,-1.57,9.26,77.71,13.69
Bogovarovo,94,RU,1569514212,96,58.98,47.02,34.69,7.43
La Ronge,40,CA,1569514213,86,55.1,-105.3,41.0,6.93
Ankang,33,CN,1569514214,68,32.73,108.99,60.43,2.93
Chieti,20,IT,1569514216,69,42.34,14.17,75.2,8.05
Umm Kaddadah,100,SD,1569514218,50,13.6,26.69,81.31,36.55
San Antonio del Norte,40,HN,1569514219,73,13.88,-87.7,82.4,2.8
Bulri,16,PK,1569514220,54,24.87,68.33,90.49,8.72
Hermanus,0,ZA,1569514221,33,-34.42,19.24,84.0,1.99
Caracollo,100,PE,1569514223,61,-14.92,-70.66,44.23,5.77
Faanui,57,PF,1569514224,82,-16.48,-151.75,79.15,18.14
Stokmarknes,20,NO,1569514225,71,68.56,14.91,53.6,9.17
Saldanha,0,PT,1569514226,27,41.42,-6.55,75.91,2.1
Mahebourg,75,MU,1569514229,94,-20.41,57.7,75.0,14.99
Mamallapuram,20,IN,1569514230,83,12.63,80.17,84.2,8.05
Chuy,0,UY,1569514231,58,-33.69,-53.46,64.93,11.12
Xuddur,62,SO,1569514232,46,4.12,43.89,85.63,18.05
Itarema,53,BR,1569514234,32,-2.92,-39.92,95.35,11.21
Mehamn,75,NO,1569514235,100,71.03,27.85,44.6,5.82
Bure,99,NG,1569514236,51,10.52,10.33,86.71,5.48
Saint Anthony,1,US,1569514237,57,43.97,-111.68,53.01,8.05
Ayagoz,0,KZ,1569514239,48,47.96,80.43,52.87,5.91
Loreto,0,PY,1569514241,26,-23.27,-57.32,89.59,4.83
Torbay,90,CA,1569514243,100,47.66,-52.73,55.99,16.11
Port Hardy,20,CA,1569514244,81,50.7,-127.42,51.8,9.17
Klaksvik,75,FO,1569514246,93,62.23,-6.59,53.6,41.38
Geraldton,75,CA,1569514247,76,49.72,-86.95,50.0,6.93
Butterworth,75,MY,1569514249,100,5.4,100.37,77.0,2.24
Komatipoort,0,MZ,1569514250,51,-25.43,31.96,66.0,9.15
Mandera,92,ET,1569514251,37,3.94,41.86,95.0,5.01
Grand Gaube,75,MU,1569514253,94,-20.01,57.66,75.0,14.99
Wewak,90,PG,1569514255,85,-3.55,143.63,77.71,3.8
Saint-Denis,90,FR,1569514256,68,48.94,2.36,68.0,20.8
Coquimbo,75,CL,1569514258,71,-29.95,-71.34,57.2,10.29
Turukhansk,22,RU,1569514259,89,65.8,87.96,31.81,7.43
Zhuanghe,0,CN,1569514260,60,39.7,122.97,63.0,2.51
Emba,20,CY,1569514155,74,34.81,32.42,78.8,10.29
Paamiut,0,GL,1569514263,60,61.99,-49.67,43.33,3.02
Araouane,0,ML,1569514264,7,18.9,-3.53,107.23,11.99
Cherskiy,93,RU,1569514265,67,68.75,161.3,27.85,3.65
Beni Mazar,0,EG,1569514267,16,28.5,30.8,96.43,8.77
Fare,90,PF,1569514268,83,-16.7,-151.02,78.43,19.62
Kiunga,100,PG,1569514269,99,-6.12,141.3,73.39,3.0
Kaitangata,96,NZ,1569514270,75,-46.28,169.85,45.0,10.0
Berdigestyakh,100,RU,1569514271,89,62.1,126.7,43.87,9.46
Alugan,25,PH,1569514274,91,12.22,125.48,76.45,0.98
North Bend,1,US,1569514275,93,43.41,-124.22,57.99,5.82
Longyearbyen,75,NO,1569514276,93,78.22,15.63,41.0,13.87
Vila Franca do Campo,20,PT,1569514279,88,37.72,-25.43,75.2,16.11
Vila Velha,0,BR,1569514280,51,-3.71,-38.6,86.0,20.8
Evensk,99,RU,1569514281,72,61.92,159.24,32.35,12.15
Victoria,75,BN,1569514053,83,5.28,115.24,82.4,2.24
Barrow,0,AR,1569514284,51,-38.31,-60.23,67.27,12.5
Upernavik,100,GL,1569514285,58,72.79,-56.15,37.03,8.48
Broome,40,GB,1569514286,60,52.47,1.45,69.01,12.75
Shenjiamen,0,CN,1569514287,73,29.96,122.3,71.77,6.8
Lake Cowichan,75,CA,1569514289,93,48.82,-124.05,59.0,3.36
Shiyan,1,CN,1569514290,67,32.65,110.78,61.33,3.06
Mizdah,79,LY,1569514291,19,31.45,12.98,92.65,15.57
Grand Forks,75,US,1569514292,55,47.91,-97.06,60.8,5.82
Talnakh,75,RU,1569514293,85,69.49,88.39,35.6,6.71
Ipiau,40,BR,1569514003,52,-14.14,-39.73,82.39,5.95
Vostok,0,RU,1569514298,76,46.45,135.83,42.07,3.51
Ranot,80,TH,1569514299,77,7.78,100.32,79.51,3.71
Yashalta,100,RU,1569514300,86,46.34,42.27,52.87,9.48
Padang,100,ID,1569514301,83,-0.92,100.36,78.97,10.92
Starachowice,100,PL,1569514303,1,51.05,21.08,62.01,7.18
Garlasco,0,IT,1569514304,60,45.2,8.92,77.0,3.36
Shu,0,KZ,1569514305,24,43.6,73.76,70.87,6.6
Buritizeiro,6,BR,1569514306,28,-17.37,-44.96,90.67,7.85
Dhidhdhoo,100,MV,1569514308,70,6.88,73.1,82.93,1.19
Channel-Port aux Basques,55,CA,1569514310,94,47.57,-59.14,50.89,16.31
Avera,1,US,1569514311,36,33.19,-82.53,93.99,5.82
Puerto Escondido,75,MX,1569514312,74,15.86,-97.07,80.6,3.58
Norman Wells,75,CA,1569514314,92,65.28,-126.83,33.8,8.05
Sao Miguel do Araguaia,46,BR,1569514315,15,-13.28,-50.16,114.25,1.28
Ovre Ardal,20,NO,1569514316,61,61.32,7.8,50.0,33.33
Colares,20,PT,1569514317,60,38.8,-9.45,78.8,20.8
Kamaishi,0,JP,1569514319,85,39.28,141.86,48.37,2.06
Qiqihar,0,CN,1569514103,71,47.35,123.91,59.89,5.82
San Cristobal,22,HN,1569514321,72,14.68,-86.92,78.97,0.74
Balabac,0,PH,1569514322,81,7.99,117.06,81.67,7.74
Willowmore,0,ZA,1569514323,7,-33.3,23.49,83.83,9.42
Iqaluit,20,CA,1569514325,80,63.75,-68.52,41.0,14.99
Nacozari,0,MX,1569514326,74,25.34,-108.26,87.01,7.0
Bournemouth,20,GB,1569514327,68,50.72,-1.88,64.99,18.34
Mykhaylivka,0,UA,1569514328,29,47.27,35.22,60.8,2.24
Pangkalanbuun,93,ID,1569514329,94,-2.68,111.62,74.29,2.66
Zhigansk,16,RU,1569514332,78,66.77,123.37,33.61,11.07
Xinyu,95,CN,1569514333,63,27.8,114.93,67.63,1.45
Tottori,2,JP,1569514334,72,35.5,134.23,68.35,3.65
Den Helder,75,NL,1569514335,93,52.96,4.76,64.99,17.22
Ha Tinh,100,VN,1569514337,81,18.33,105.9,73.39,1.66
Sao Filipe,45,CV,1569514338,83,14.9,-24.5,76.99,16.31
Tonantins,59,BR,1569514339,56,-2.86,-67.77,92.11,1.01
Kieta,3,PG,1569514340,79,-6.22,155.63,80.05,4.68
Lanzhou,0,CN,1569514341,87,36.06,103.82,48.2,6.71
Kribi,67,CM,1569514343,82,2.94,9.91,78.97,7.58
Kalvarija,0,LT,1569514344,68,54.41,23.23,59.17,6.78
Nishihara,75,JP,1569514345,77,35.74,139.53,72.0,5.75
Wanning,75,AT,1569514346,72,48.64,13.53,64.99,3.36
Sabang,0,PH,1569514348,92,13.8,121.11,78.01,1.52
Lagoa,0,PT,1569514349,68,37.14,-8.45,80.01,9.17
Batouri,100,CM,1569514350,88,4.44,14.36,78.25,0.96
Sao Borja,0,BR,1569514351,47,-28.66,-56.0,75.37,7.72
Bonavista,100,CA,1569514353,85,48.65,-53.11,51.01,11.01
Nieves,100,MX,1569514354,74,24.0,-103.02,62.41,3.11
Otradnoye,40,RU,1569514355,71,59.77,30.8,50.0,8.95
Los Llanos de Aridane,75,ES,1569514357,73,28.66,-17.92,77.0,9.17
Baykit,99,RU,1569514358,93,61.68,96.39,30.37,1.1
Lishu,22,CN,1569514360,69,43.31,124.32,63.67,10.31
Imeni Poliny Osipenko,0,RU,1569514327,72,52.42,136.49,38.11,2.66
Khed Brahma,100,IN,1569514362,77,24.03,73.05,81.31,3.4
Leshan,56,CN,1569514363,80,29.56,103.76,65.11,2.33
Champerico,90,MX,1569514364,88,16.38,-93.6,75.2,2.24
Torbat-e Jam,0,IR,1569514366,16,35.24,60.63,73.03,4.12
Zhuhai,0,CN,1569514367,66,40.71,112.04,51.8,6.71
Mweka,66,CD,1569514368,46,-4.85,21.56,88.69,2.82
Rzhev,47,RU,1569514369,73,56.26,34.33,43.33,2.59
Tiznit,0,MA,1569514370,87,29.7,-9.73,69.79,3.53
Guerrero Negro,99,MX,1569514372,79,27.97,-114.04,66.91,8.39
Kachug,93,RU,1569514373,88,53.96,105.89,45.31,1.34
Bhan,43,PK,1569514374,34,26.56,67.72,97.15,8.12
Dingle,57,PH,1569514375,91,11.0,122.67,75.37,3.44
Northam,0,AU,1569514378,81,-31.65,116.67,51.8,3.36
Caconda,46,AO,1569514379,14,-13.73,15.06,90.49,10.07
Kholmogory,90,RU,1569514380,75,64.23,41.65,42.8,6.71
Bogdanovich,54,RU,1569514383,85,56.77,62.05,34.69,8.72
Songjianghe,57,CN,1569514385,88,42.18,127.48,55.39,2.73
Jijiga,50,ET,1569514386,66,9.35,42.8,66.19,4.56
Jalu,0,LY,1569514387,25,29.03,21.55,92.65,11.65
Kavieng,63,PG,1569514388,72,-2.57,150.8,83.83,8.59
Thompson,20,CA,1569514390,69,55.74,-97.86,37.4,6.93
Vardo,90,US,1569514391,60,39.62,-77.74,80.6,4.7
Tuatapere,55,NZ,1569514392,89,-46.13,167.69,46.0,11.01
Broken Hill,100,AU,1569514393,23,-31.97,141.45,62.6,6.93
Sao Gabriel da Cachoeira,40,BR,1569514395,74,-0.13,-67.09,84.2,2.24
Richards Bay,0,ZA,1569514396,62,-28.77,32.06,64.57,15.84
Portland,90,US,1569513615,68,43.66,-70.25,72.0,8.05
Providencia,75,CO,1569514398,60,1.24,-77.6,69.8,4.7
Malinovoye Ozero,0,RU,1569514399,57,51.68,79.77,44.95,5.84
Kaseda,25,JP,1569514401,88,31.42,130.32,73.0,5.99
Port Augusta,100,AU,1569514402,36,-32.49,137.76,60.8,9.17
Bukan,0,IR,1569514403,18,36.52,46.21,75.37,14.09
Boa Vista,40,BR,1569514404,69,2.82,-60.67,80.6,5.82
Lata,100,IN,1569514406,97,30.78,78.62,42.79,1.83
Batemans Bay,100,AU,1569514407,79,-35.71,150.18,53.01,1.99
Ilo,90,PE,1569514408,82,-17.65,-71.34,62.6,3.36
Ginir,93,ET,1569514409,84,7.14,40.71,63.85,6.11
Kerrville,1,US,1569514412,54,30.05,-99.14,86.0,5.82
Dicabisagan,11,PH,1569514413,96,17.08,122.42,73.75,1.23
Necochea,0,AR,1569514414,74,-38.55,-58.74,55.99,11.01
Soverato,40,IT,1569514415,69,38.69,16.55,78.8,9.17
Los Altos,0,AR,1569514417,25,-28.05,-65.5,80.41,5.97
Whitehorse,90,CA,1569514205,100,60.72,-135.06,36.0,4.7
Clovis,40,US,1569514419,53,36.83,-119.7,81.0,8.05
Kavaratti,100,IN,1569514420,81,10.57,72.64,80.59,17.38
Kahului,1,US,1569514421,83,20.89,-156.47,72.0,4.7
Port Moresby,16,PG,1569514423,86,-9.47,147.16,76.99,23.51
Yataity,0,PY,1569514424,35,-26.37,-56.07,81.85,4.36
Touros,40,BR,1569514425,54,-5.2,-35.46,84.2,16.11
Nauchnyy Gorodok,0,RU,1569514426,52,53.42,83.52,41.0,2.24
Lethem,81,GY,1569514428,54,3.38,-59.8,88.87,5.39
Sao Joao da Barra,90,BR,1569514429,83,-21.64,-41.05,71.6,3.49
Challans,90,FR,1569514430,88,46.85,-1.88,66.2,16.11
Kasongo-Lunda,84,CD,1569514431,46,-6.48,16.82,85.99,3.51
Amapa,75,HN,1569514432,66,15.09,-87.97,86.0,2.3
Belmonte,19,PT,1569514434,43,40.36,-7.35,77.0,4.0
Hirara,100,JP,1569514435,87,24.8,125.28,80.59,19.8
Taltal,0,CL,1569514436,67,-25.41,-70.49,57.19,5.68
Mayumba,95,GA,1569514438,87,-3.44,10.65,76.81,13.13
Iquique,40,CL,1569514440,63,-20.22,-70.14,62.6,9.17
Shimoda,13,JP,1569514441,89,34.7,138.93,70.0,4.0
Adrar,20,DZ,1569514442,5,27.87,-0.29,111.2,3.36
Sol-Iletsk,100,RU,1569514443,54,51.16,55.0,44.59,6.53
Dryden,40,CA,1569514445,71,49.79,-92.84,51.8,10.29
Lebu,10,ET,1569514447,79,8.96,38.73,61.15,6.8
Marinette,1,US,1569514448,54,45.1,-87.63,57.99,12.75
Auki,100,NG,1569514450,42,12.18,6.51,91.57,6.6
Bongouanou,79,CI,1569514453,69,6.65,-4.2,84.37,2.3
Baihar,100,IN,1569514454,98,22.11,80.55,70.51,4.65
Tias,20,ES,1569514456,65,28.96,-13.65,80.6,17.22
Puerto Leguizamo,4,CO,1569514457,50,-0.19,-74.78,90.13,2.66
Hasaki,20,JP,1569514458,88,35.73,140.83,64.4,1.12
Nuuk,20,GL,1569514459,39,64.17,-51.74,46.4,21.92
Conceicao do Araguaia,4,BR,1569514461,24,-8.26,-49.26,101.83,4.68
Rawson,99,AR,1569514462,37,-43.3,-65.11,56.83,14.41
Kameshkovo,100,RU,1569514463,86,56.35,41.0,41.71,3.09
Port Lincoln,88,AU,1569514464,72,-34.72,135.86,60.79,9.86
Kirovskiy,0,RU,1569514465,89,45.09,133.51,50.89,5.19
Cabo San Lucas,5,MX,1569514418,74,22.89,-109.91,84.0,12.75
Tugulym,0,RU,1569514468,86,57.06,64.64,37.4,8.95
Bhag,0,PK,1569514470,29,29.04,67.82,98.23,8.08
Jertih,75,MY,1569514471,94,5.74,102.5,78.8,1.12
Bodmin,20,GB,1569514473,77,50.47,-4.72,64.99,19.46
Saint-Gabriel,90,CA,1569514474,100,46.3,-73.38,55.99,3.36
Constitucion,20,MX,1569514475,67,23.99,-104.67,69.01,2.33
Azul,0,AR,1569514476,35,-36.78,-59.86,78.01,1.99
Bolobo,70,CD,1569514478,57,-2.17,16.23,87.43,3.94
Bilma,0,NE,1569514390,8,18.69,12.92,102.55,6.13
Bay Roberts,90,CA,1569514480,100,47.58,-53.28,55.99,11.41
Westport,20,US,1569514481,54,41.14,-73.36,79.0,8.05
Nador,0,MA,1569514482,57,35.17,-2.93,82.4,5.82
Harper,1,US,1569514484,54,30.3,-99.24,86.0,5.82
Jurm,0,AF,1569514485,54,36.86,70.83,54.85,3.58
Elliot Lake,40,CA,1569514486,77,46.37,-82.65,59.0,14.99
Sorland,49,NO,1569514487,84,67.67,12.69,51.79,11.07
Burkburnett,40,US,1569514449,65,34.1,-98.57,84.2,13.87
Tomatlan,100,MX,1569514491,87,19.93,-105.25,78.79,4.76
Aluksne,42,LV,1569514492,63,57.42,27.05,48.91,0.92
Kungurtug,100,RU,1569514493,54,50.6,97.53,48.01,3.83
Bukid,7,PH,1569514495,91,11.29,124.75,76.45,2.35
Manokwari,100,ID,1569514218,84,-0.87,134.08,73.93,4.21
Udayagiri,41,IN,1569514497,90,12.32,76.68,69.43,5.97
Koslan,100,RU,1569514498,93,63.46,48.9,37.21,6.08
Santa Marta,100,CO,1569514500,80,11.24,-74.21,81.67,13.24
Safita,40,SY,1569514501,65,34.82,36.12,80.6,3.36
Makakilo City,75,US,1569514503,100,21.35,-158.09,78.8,10.56
Tymovskoye,0,RU,1569514507,90,50.85,142.66,39.19,4.16
Launceston,75,AU,1569514352,93,-41.43,147.14,50.0,14.99
Letpadan,99,MM,1569514511,91,17.78,95.75,76.99,6.51
Lewistown,1,US,1569514515,48,40.39,-90.15,69.01,5.82
Porto Belo,40,BR,1569514517,73,-27.15,-48.54,79.0,8.05
Fukue,75,JP,1569514518,73,35.03,136.69,77.0,12.75
Mansa,75,IN,1569514522,94,23.43,72.66,82.4,3.98
Poum,75,MK,1569514524,72,41.28,20.71,66.2,4.7
Nacala,68,MZ,1569514525,44,-14.56,40.69,78.79,13.24
Sur,11,OM,1569514528,59,22.57,59.53,84.73,7.43
Berovo,30,MK,1569514533,75,41.71,22.85,66.99,8.99
Sinnamary,32,GF,1569514535,71,5.38,-52.96,83.11,9.57
Hamilton,75,CA,1569514457,82,43.26,-79.87,71.01,11.41
Stolin,100,BY,1569514493,90,51.89,26.85,55.21,5.55
Pacifica,1,US,1569514541,64,37.61,-122.49,70.0,11.41
Seymchan,100,RU,1569514543,72,62.93,152.39,26.05,6.85
Binay,16,PH,1569514544,92,13.5,122.6,76.63,3.78
Marquette,75,US,1569514504,66,46.54,-87.4,57.0,4.7
Matamoros,1,US,1569514547,66,25.87,-97.51,90.0,9.17
Pascagoula,1,US,1569514549,49,30.37,-88.56,90.0,5.82
Gorontalo,1,ID,1569514551,93,0.54,123.06,72.67,2.48
Cockburn Town,40,TC,1569514552,70,21.46,-71.14,86.0,5.82
Morehead,1,US,1569514553,50,38.18,-83.43,78.8,4.7
Aykhal,90,RU,1569514554,74,65.95,111.51,33.8,6.71
Kokuy,3,RU,1569514555,78,52.2,117.55,52.15,1.9
Preobrazheniye,0,RU,1569514557,82,42.9,133.91,56.83,2.95
Solton,55,RU,1569514558,65,52.84,86.48,38.83,3.62
San Rafael,89,AR,1569514411,20,-34.61,-68.33,78.43,9.17
Rome,20,IT,1569514507,65,41.89,12.48,82.4,6.93
Bayji,0,IQ,1569514561,12,34.93,43.49,91.03,8.52
Senanga,0,ZM,1569514563,21,-16.1,23.3,84.91,11.7
Margate,100,AU,1569514564,71,-43.03,147.26,54.0,10.29
Menongue,97,AO,1569514565,22,-14.66,17.68,82.93,9.15
Alofi,100,NU,1569514567,94,-19.06,-169.92,69.8,3.36
Huilong,81,CN,1569514568,66,31.15,106.5,71.59,2.53
Selfoss,75,IS,1569514569,48,63.94,-21.0,64.4,11.41
Kholodnyy,0,RU,1569514572,71,62.72,147.95,19.93,3.65
Kulhudhuffushi,100,MV,1569514573,70,6.62,73.07,83.29,2.28
Goure,94,NE,1569514575,16,13.98,10.27,100.0,10.0
Formosa,49,BR,1569514576,29,-15.55,-47.33,85.63,7.65
Pacific Grove,90,US,1569514577,82,36.62,-121.92,70.0,6.93
Vao,52,EE,1569514579,79,59.1,26.19,50.71,4.74
Panaba,4,MX,1569514580,71,21.28,-88.27,85.27,6.4
Winslow,20,GB,1569514581,59,51.94,-0.88,66.99,17.22
Kawalu,80,ID,1569514582,88,-7.38,108.21,68.17,4.38
Monrovia,75,LR,1569514584,83,6.33,-10.8,82.4,9.17
Elizabeth City,40,US,1569514560,74,36.3,-76.22,87.01,11.41
Chimore,98,BO,1569514586,62,-16.98,-65.13,71.77,2.93
Casablanca,0,MA,1569514511,42,33.6,-7.62,82.4,17.22
Port-Gentil,40,GA,1569514588,78,-0.72,8.78,82.4,13.87
Namibe,0,AO,1569514590,65,-15.19,12.15,78.8,14.99
Fairbanks,90,US,1569514315,93,64.84,-147.72,35.6,4.7
Sovetsk,0,RU,1569514592,68,55.08,21.89,61.33,4.94
Calama,0,CL,1569514593,6,-22.46,-68.93,78.01,8.05
Date,20,JP,1569514594,93,42.53,140.93,55.99,2.24
Hangu,20,PK,1569514597,62,33.53,71.06,86.0,4.7
Kharp,98,RU,1569514598,93,66.82,65.8,28.75,2.37
Manta,94,RO,1569514599,81,45.1,24.1,61.87,3.13
Werota,39,ET,1569514600,69,11.92,37.7,74.47,19.15
Mao,40,DO,1569514602,74,19.55,-71.08,88.0,2.75
Saint-Georges,100,CA,1569514603,23,46.12,-70.67,63.0,1.01
Bubaque,5,GW,1569514604,71,11.28,-15.83,83.29,3.33
Hobbs,5,US,1569514606,48,32.7,-103.14,84.99,5.82
Conceicao da Barra,100,BR,1569514607,56,-18.59,-39.73,82.21,8.28
Batagay-Alyta,100,RU,1569514608,91,67.8,130.41,20.11,3.0
Inhambane,75,MZ,1569514609,52,-23.87,35.38,68.0,11.41
Bagdarin,87,RU,1569514610,90,54.44,113.59,42.25,5.39
Meulaboh,100,ID,1569514612,70,4.14,96.13,83.11,4.0
Talas,0,KG,1569514614,38,42.52,72.24,60.61,2.19
Noumea,20,NC,1569514615,77,-22.28,166.46,72.0,3.36
Warrnambool,100,AU,1569514617,92,-38.38,142.48,54.0,8.01
Ouesso,96,CG,1569514618,51,1.61,16.05,87.25,4.07
Aklavik,75,CA,1569514619,80,68.22,-135.01,33.8,9.17
Lompoc,1,US,1569514616,69,34.64,-120.46,73.99,14.99
Tayu,75,JP,1569514623,73,35.06,136.67,77.0,12.75
Sola,72,TZ,1569514624,41,-3.17,33.8,79.51,6.33
Sobolevo,0,RU,1569514625,70,54.43,31.9,49.09,4.52
Naze,100,NG,1569514626,76,5.43,7.07,83.11,4.41
Caravelas,38,BR,1569514627,79,-17.73,-39.27,76.09,12.12
Nizhniy Odes,100,RU,1569514629,94,63.64,54.86,35.77,5.68
Te Anau,100,NZ,1569514630,91,-45.41,167.72,41.35,7.58
Severodvinsk,90,RU,1569514632,75,64.56,39.82,42.8,6.71
Canico,75,PT,1569514633,60,32.63,-16.85,73.99,9.17
Ust-Maya,100,RU,1569514634,91,60.42,134.54,37.57,3.04
Kalghatgi,75,IN,1569514636,99,15.18,74.97,70.15,2.17
Teguldet,2,RU,1569514637,90,57.31,88.17,30.55,2.68
Mokhsogollokh,100,RU,1569514638,96,61.4,128.95,44.95,7.4
Kharan,0,PK,1569514639,24,28.58,65.42,89.23,4.52
Kaputa,79,ZM,1569514641,32,-8.47,29.66,83.65,10.67
Santa Barbara,20,US,1569514642,78,34.42,-119.7,75.2,9.17
Frutal,100,BR,1569514643,79,-20.02,-48.93,72.31,7.54
Buraydah,0,SA,1569514644,15,26.33,43.97,100.4,4.7
Vidim,20,CZ,1569514647,63,50.47,14.53,68.0,4.7
Swellendam,0,ZA,1569514586,23,-34.02,20.44,75.2,4.7
Port Blair,62,IN,1569514649,82,11.67,92.75,82.03,11.95
Da Lat,100,VN,1569514650,99,11.95,108.44,66.37,2.51
Maharajganj,100,IN,1569514651,94,26.11,84.5,74.65,5.12
Labuhan,22,ID,1569514653,94,-2.54,115.51,72.67,2.15
Xining,0,CN,1569514654,42,36.62,101.77,44.77,3.53
Zemio,100,CF,1569514655,79,5.02,25.13,78.61,3.85
Kysyl-Syr,33,RU,1569514656,93,63.9,122.77,34.51,5.84
Tayoltita,76,MX,1569514658,81,24.11,-105.93,69.61,1.5
Pilar,0,AR,1569514659,46,-34.46,-58.91,86.0,9.17
Bayir,20,TR,1569514660,57,37.27,28.22,80.6,10.29
College,90,US,1569514661,93,64.86,-147.8,37.4,4.7
Kyzyl-Suu,43,KG,1569514663,58,42.34,78.0,65.83,10.51
Santa catarina de Tepehuanes,30,MX,1569514664,70,25.34,-105.72,62.23,2.55
Arak,1,IR,1569514665,16,34.1,49.69,69.07,8.48
Helong,0,CN,1569514666,58,25.94,116.13,66.37,3.0
Usinsk,100,RU,1569514668,94,66.0,57.56,36.49,10.22
Banjar,72,ID,1569514669,89,-7.37,108.54,72.13,0.65
Barretos,100,BR,1569514670,82,-20.55,-48.57,70.33,5.41
Buala,65,SB,1569514671,80,-8.15,159.59,79.69,7.16
Isangel,98,VU,1569514672,76,-19.55,169.27,71.95,13.91
Wanaka,99,NZ,1569514500,66,-44.7,169.14,46.99,1.01
Chake Chake,91,TZ,1569514676,77,-5.25,39.77,79.33,24.85
Villa del Rosario,0,AR,1569514677,16,-31.55,-63.53,86.0,13.87
Ahuimanu,75,US,1569514678,100,21.44,-157.84,78.8,3.47
Gushikawa,40,JP,1569514680,88,26.35,127.87,82.4,6.93
Arthur,90,US,1569514681,41,41.57,-101.69,62.01,12.75
Abong Mbang,100,CM,1569514683,61,3.98,13.18,83.11,2.13
Sao Felix do Xingu,10,BR,1569514685,26,-6.64,-51.99,104.71,2.57
Oleksandrivka,100,UA,1569514687,43,48.97,32.24,58.63,6.82
Kitab,0,UZ,1569514688,46,39.12,66.88,73.4,2.24
Merauke,0,ID,1569514690,83,-8.49,140.4,78.25,23.89
Abha,40,SA,1569514691,23,18.22,42.5,78.8,14.99
Olinda,0,AU,1569514692,62,-37.84,145.39,57.0,17.22
Pangnirtung,20,CA,1569514693,30,66.15,-65.72,57.2,18.34
Doha,20,QA,1569514694,71,25.29,51.53,95.0,9.17
Dudinka,75,RU,1569514698,96,69.41,86.18,35.6,6.71
Fort Nelson,90,CA,1569514699,87,58.81,-122.69,42.8,10.29
Bahir Dar,74,ET,1569514701,86,11.59,37.39,64.57,6.46
Chyhyryn,100,UA,1569514704,34,49.08,32.67,60.97,8.25
Revda,100,RU,1569514707,86,67.94,34.55,37.75,3.76
Ligayan,0,PH,1569514709,67,4.65,119.47,84.01,6.93
San Quintin,100,PH,1569514710,89,17.54,120.52,75.91,2.91
Rabaul,33,PG,1569514712,77,-4.2,152.17,82.03,8.86
Mackenzie,1,CA,1569514713,75,55.34,-123.09,42.8,2.24
Byron Bay,90,AU,1569514714,88,-28.65,153.62,64.4,9.17
Fort Oglethorpe,40,US,1569514716,48,34.95,-85.24,88.0,5.82
Zory,40,PL,1569514717,87,50.05,18.7,63.0,8.05
Ilinskiy,0,RU,1569514718,57,55.62,38.12,50.0,2.24
Witney,90,GB,1569514719,72,51.78,-1.49,66.0,16.11
Marsh Harbour,100,BS,1569514721,68,26.54,-77.06,79.15,11.03
Abu Kamal,0,SY,1569514722,15,34.45,40.92,88.15,10.27
Muroto,63,JP,1569514724,89,33.37,134.14,71.59,5.08
Petatlan,90,MX,1569514725,74,17.52,-101.27,82.4,3.4
Katherine,32,AU,1569514728,45,-14.47,132.26,82.4,13.87
Tahoua,20,NE,1569514729,26,14.89,5.26,102.2,11.41
Labranzagrande,66,CO,1569514731,79,5.56,-72.58,55.03,6.91
Kaeo,0,NZ,1569514732,100,-35.1,173.78,48.99,8.39
Mulege,0,MX,1569514733,59,26.88,-111.98,77.71,2.71
Qinhuangdao,0,CN,1569514734,87,39.94,119.59,60.79,3.2
Goderich,0,CA,1569514736,80,43.74,-81.71,66.0,15.01
Kargasok,77,RU,1569514737,85,59.06,80.87,34.51,6.67
Kangaatsiaq,36,GL,1569514739,61,68.31,-53.46,38.47,19.71
Gornopravdinsk,93,RU,1569514740,87,60.06,69.92,35.41,9.57
Sitka,84,US,1569514742,63,37.17,-99.65,64.0,11.99
Ubinskoye,0,RU,1569514743,62,55.31,79.68,37.03,8.63
Progreso,0,UY,1569514744,52,-34.68,-56.22,69.8,10.29
Kadoshkino,69,RU,1569514746,77,54.03,44.42,42.79,4.68
Hays,90,US,1569514700,35,38.88,-99.33,69.8,19.46
Mangan,99,IN,1569514748,98,27.5,88.54,55.75,0.87
Riyadh,38,SA,1569514631,17,24.63,46.72,98.6,8.05
Pietroasa,100,RO,1569514750,95,45.84,22.39,57.37,3.58
Biu,100,NG,1569514751,80,10.61,12.19,78.43,0.81
Mugur-Aksy,27,RU,1569514753,93,50.38,90.44,28.57,4.09
Plastun,0,RU,1569514754,81,44.76,136.29,42.25,5.82
Bowen,75,AU,1569514755,88,-20.01,148.25,66.2,6.93
Havelock,40,US,1569514757,74,34.88,-76.9,86.0,17.22
Gannan,72,CN,1569514758,75,47.92,123.49,55.75,3.78
Gat,75,SN,1569514759,79,14.69,-16.54,91.4,12.75
Yichang,0,CN,1569514760,62,30.77,111.32,61.69,3.67
Shelburne,90,CA,1569514763,82,44.08,-80.2,69.01,6.93
Iraucuba,49,BR,1569514764,23,-3.75,-39.78,95.89,8.39
Brae,75,GB,1569514765,93,60.4,-1.35,55.4,34.45
Whitley Bay,20,GB,1569514767,77,55.04,-1.44,61.0,5.82
Cuamba,0,MZ,1569514769,47,-14.8,36.54,68.53,14.58
Charters Towers,2,AU,1569514770,93,-20.07,146.27,62.05,6.13
Nahavand,7,IR,1569514771,15,34.19,48.37,77.0,3.36
Baherden,0,TM,1569514772,21,38.44,57.43,72.31,6.26
Kanniyakumari,33,IN,1569514773,79,8.08,77.57,80.95,7.76
Aitape,17,PG,1569514775,91,-3.15,142.36,76.45,3.56
Funadhoo,100,MV,1569514776,69,6.15,73.27,83.65,5.5
Nsanje,55,MZ,1569514777,45,-16.92,35.26,71.05,11.07
Christchurch,59,NZ,1569514726,93,-43.53,172.64,46.99,2.24
Lahaina,1,US,1569514769,83,20.87,-156.68,77.0,4.7
Laguna,75,BZ,1569514781,83,16.17,-88.94,82.4,4.7
Karratha,6,AU,1569514782,73,-20.74,116.85,64.75,7.67
